stop_id,stop_name,stop_lat,stop_lon,location_type
1,"Panaji",15.495902061462402,73.837295532226560,0
2,"Teen Building",15.519934654235840,73.828475952148440,0
3,"Teen Building",15.520595550537110,73.829216003417970,0
4,"Training College",15.524370193481445,73.827095031738280,0
5,"Training College",15.524468421936035,73.827690124511720,0
6,"Gulyakade",15.531288146972656,73.824943542480470,0
7,"Gulyakade",15.531339645385742,73.824737548828120,0
8,"Copel",15.534039497375488,73.823890686035160,0
9,"Copel",15.534477233886719,73.823844909667970,0
10,"Vadakade",15.541445732116700,73.821479797363280,0
11,"Vadakade",15.541497230529785,73.821578979492190,0
12,"Porvorim Tisk",15.552451133728027,73.817398071289060,0
13,"Porvorim Tisk",15.552399635314941,73.817649841308600,0
14,"Guirim Cross",15.565456390380860,73.808326721191400,0
15,"Guirim Cross",15.565556526184082,73.808441162109380,0
16,"Green Park",15.574387550354004,73.806549072265620,0
17,"Green Park",15.573175430297852,73.806724548339840,0
18,"Guirim Copel",15.579066276550293,73.806182861328120,0
19,"Guirim Copel",15.578997611999512,73.806213378906250,0
20,"Mapusa",15.589148521423340,73.810119628906250,0
21,"Dhuler",15.602046012878418,73.815681457519530,0
22,"Dhuler",15.602038383483887,73.815559387207030,0
23,"Karaswada",15.608727455139160,73.823654174804690,0
24,"Karaswada",15.608665466308594,73.823966979980470,0
25,"Madel",15.618712425231934,73.835578918457030,0
26,"Madel",15.618568420410156,73.835525512695310,0
27,"Thivim",15.622522354125977,73.855186462402340,0
28,"Thivim",15.622422218322754,73.855377197265620,0
29,"Cansa Bodiem",15.626439094543457,73.867279052734380,0
30,"Cansa Bodiem",15.626312255859375,73.867248535156250,0
31,"Sirsaim",15.626811027526855,73.875534057617190,0
32,"Sirsaim",15.626732826232910,73.875465393066400,0
33,"Zarapkar Petrol Pump",15.622215270996094,73.885658264160160,0
34,"Zarapkar Petrol Pump",15.622097015380860,73.885597229003900,0
35,"Assnoda Bus Stand",15.619217872619629,73.901382446289060,0
36,"Assnoda Paar",15.620198249816895,73.906562805175780,0
37,"Assnoda Paar",15.620076179504395,73.906517028808600,0
38,"Tamda Rasta",15.618030548095703,73.921081542968750,0
39,"Tamda Rasta",15.617901802062988,73.921043395996100,0
40,"Mulgao",15.614687919616700,73.926803588867190,0
41,"Mulgao",15.614597320556640,73.926750183105470,0
42,"Vaalshi",15.605429649353027,73.934120178222660,0
43,"Vaalshi",15.605388641357422,73.933959960937500,0
44,"ITI Bicholim",15.603597640991211,73.935638427734380,0
45,"ITI Bicholim",15.603507995605469,73.935554504394530,0
46,"Bordem",15.593248367309570,73.944976806640620,0
47,"Bordem",15.593181610107422,73.944892883300780,0
48,"Shantadurga Highschool",15.591450691223145,73.946220397949220,0
49,"Shantadurga Highschool",15.591347694396973,73.946128845214840,0
50,"Bicholim Bus Stand",15.588580131530762,73.949691772460940,0
51,"Bicholim Hospital",15.584655761718750,73.959716796875000,0
52,"Bicholim Hospital",15.584578514099121,73.959663391113280,0
53,"Sarvan Cross",15.578932762145996,73.973770141601560,0
54,"Sarvan Cross",15.578822135925293,73.973739624023440,0
55,"Karapur Tisk",15.567936897277832,74.002792358398440,0
56,"Karapur Tisk",15.567888259887695,74.002807617187500,0
57,"Datt Mandir",15.565036773681640,74.009063720703120,0
58,"Datt Mandir",15.565021514892578,74.009025573730470,0
59,"Sakhali Bus Stand",15.561471939086914,74.009994506835940,0
60,"Sakhali Hospital",15.557542800903320,74.015838623046880,0
61,"Sakhali Hospital",15.557499885559082,74.015838623046880,0
62,"Housing Board",15.556942939758300,74.022697448730470,0
63,"Housing Board",15.556851387023926,74.022796630859380,0
64,"Harvale",15.554986000061035,74.026901245117190,0
65,"Harvale",15.554972648620605,74.026992797851560,0
66,"Honda Market",15.548433303833008,74.044937133789060,0
67,"Honda Market",15.548381805419922,74.044784545898440,0
68,"Honda Bus Stand",15.546117782592773,74.052230834960940,0
69,"Vadakade Honda",15.541996002197266,74.059303283691400,0
70,"Vadakade Honda",15.541960716247559,74.059326171875000,0
71,"ACGL Honda",15.542986869812012,74.062698364257810,0
72,"ACGL Honda",15.542943000793457,74.062690734863280,0
73,"Saleli Cross",15.544691085815430,74.068786621093750,0
74,"Saleli Cross",15.544663429260254,74.068717956542970,0
75,"ACGL Bhuipal",15.542371749877930,74.077613830566400,0
76,"ACGL Bhuipal",15.542328834533691,74.077583312988280,0
77,"Kumarkhan",15.536870002746582,74.091247558593750,0
78,"Kumarkhan",15.536834716796875,74.091224670410160,0
79,"Nanus Cross",15.526968002319336,74.128555297851560,0
80,"Nanus Cross",15.526906967163086,74.128677368164060,0
81,"Valpoi Bazaar",15.530887603759766,74.137023925781250,0
82,"Valpoi Bazaar",15.530915260314941,74.136993408203120,0
83,"Valpoi Bus Stand",15.532760620117188,74.141441345214840,0
84,"Pundalik Nagar",15.515779495239258,73.834426879882810,0
85,"Pundalik Nagar",15.515906333923340,73.834602355957030,0
86,"Mapusa Court",15.593746185302734,73.814224243164060,0
87,"Mapusa Court",15.593661308288574,73.814208984375000,0
88,"Karaswada IDC",15.613698959350586,73.822799682617190,0
89,"Karaswada IDC",15.613699913024902,73.822845458984380,0
90,"Colvale Housing Board",15.627985954284668,73.825622558593750,0
91,"Colvale Housing Board",15.627786636352539,73.825630187988280,0
92,"Binani",15.635825157165527,73.830329895019530,0
93,"Binani",15.635766983032227,73.830383300781250,0
94,"Colvale Char Rasta",15.645096778869629,73.834815979003900,0
95,"Colvale Char Rasta",15.645095825195312,73.834854125976560,0
97,"Don Khambe",15.665692329406738,73.838676452636720,0
98,"Suke Kuran",15.682456016540527,73.833969116210940,0
99,"Suke Kuran",15.682492256164550,73.833992004394530,0
100,"Valpe",15.699261665344238,73.822967529296880,0
101,"Valpe",15.699277877807617,73.822998046875000,0
102,"Govt College",15.703028678894043,73.819648742675780,0
103,"Govt College",15.703062057495117,73.819679260253900,0
104,"Malpe",15.711294174194336,73.812011718750000,0
105,"Malpe",15.711430549621582,73.812133789062500,0
106,"Pedne Bus Stand",15.716584205627441,73.798919677734380,0
107,"St. Cruz",15.478668212890625,73.848533630371100,0
108,"St. Cruz",15.478754997253418,73.848464965820310,0
109,"GMC Bambolim",15.464878082275390,73.857276916503900,0
110,"GMC Bambolim",15.464747428894043,73.857604980468750,0
111,"Military Camp",15.465033531188965,73.865653991699220,0
112,"Military Camp",15.465026855468750,73.865615844726560,0
113,"Curca",15.461709976196289,73.866355895996100,0
114,"Workshop Bambolim",15.454050064086914,73.865097045898440,0
115,"Workshop Bambolim",15.454172134399414,73.865127563476560,0
116,"CPWD",15.450530052185059,73.862564086914060,0
117,"CPWD",15.450590133666992,73.862548828125000,0
118,"Shirdon",15.444373130798340,73.864631652832030,0
119,"Shirdon",15.444317817687988,73.864662170410160,0
120,"Goa Velha",15.441880226135254,73.880470275878900,0
121,"Goa Velha",15.441847801208496,73.880393981933600,0
122,"Sojikade",15.441617012023926,73.885490417480470,0
123,"Sojikade",15.441579818725586,73.885490417480470,0
124,"Pillar",15.439599990844727,73.890815734863280,0
125,"Pillar",15.439604759216309,73.890739440917970,0
126,"Chichekade",15.432576179504395,73.896987915039060,0
127,"Chichekade",15.432505607604980,73.896972656250000,0
128,"Agacaim Mkt",15.427900314331055,73.898422241210940,0
129,"Agacaim Mkt",15.427859306335450,73.898384094238280,0
130,"Agacaim Police Station",15.418815612792969,73.903602600097660,0
131,"Agacaim Police Station",15.418831825256348,73.903511047363280,0
132,"Hanuman Mandir Cortalim",15.408695220947266,73.906814575195310,0
133,"Hanuman Mandir Cortalim",15.408593177795410,73.906768798828120,0
134,"Cortalim Junction",15.402336120605469,73.907821655273440,0
135,"Cortalim Junction",15.402616500854492,73.907775878906250,0
136,"Sankvale",15.402057647705078,73.899238586425780,0
137,"Sankvale",15.402084350585938,73.899284362792970,0
138,"Jacinto Island",15.401587486267090,73.864593505859380,0
139,"Jacinto Island",15.401682853698730,73.864898681640620,0
140,"Dabolim",15.398113250732422,73.859779357910160,0
141,"Dabolim",15.398176193237305,73.859771728515620,0
142,"Chikalim post",15.398230552673340,73.848487854003900,0
143,"Chikalim post",15.398244857788086,73.848411560058600,0
144,"Chikalim Panchayat",15.397631645202637,73.845619201660160,0
145,"Chikalim Panchayat",15.397792816162110,73.845718383789060,0
146,"Chikalim Junction",15.399066925048828,73.832656860351560,0
147,"Chikalim Junction",15.399102210998535,73.832695007324220,0
148,"Vaddem Lake",15.398795127868652,73.828094482421880,0
149,"Vaddem Lake",15.398855209350586,73.828117370605470,0
150,"Goa Shipyard",15.400122642517090,73.824920654296880,0
151,"Goa Shipyard",15.400087356567383,73.824890136718750,0
152,"Vasco Kadamba Busstand",15.400233268737793,73.820968627929690,0
153,"Vasco Church",15.399211883544922,73.816825866699220,0
154,"Vasco Church",15.399128913879395,73.817237854003900,0
155,"El Monte",15.400068283081055,73.804496765136720,0
156,"El Monte",15.400102615356445,73.804588317871100,0
157,"Sada Vasco",15.409491539001465,73.794914245605470,0
158,"Sada Vasco",15.409493446350098,73.794960021972660,0
159,"Harbour Vasco",15.412860870361328,73.789764404296880,0
160,"Harbour Vasco",15.412887573242188,73.789794921875000,0
161,"Vasco I.O.C.",15.396830558776855,73.806671142578120,0
162,"Vasco I.O.C.",15.396960258483887,73.806648254394530,0
163,"Vasco Market",15.397981643676758,73.811035156250000,0
164,"Vasco Market",15.398063659667969,73.810829162597660,0
165,"Vasco Chicalim Church",15.399337768554688,73.841011047363280,0
166,"Vasco Chicalim Church",15.399356842041016,73.841072082519530,0
168,"Agacaim Bypass",15.422424316406250,73.901008605957030,0
169,"Agacaim Bypass",15.422348976135254,73.900917053222660,0
170,"Sankvale Convent",15.400949478149414,73.888572692871100,0
171,"Sankvale Convent",15.400998115539550,73.888610839843750,0
172,"Sankvale Bakery",15.403372764587402,73.892860412597660,0
173,"Sankvale Bakery",15.403398513793945,73.892799377441400,0
174,"Cortalim Junction",15.402407646179200,73.908164978027340,0
175,"Kesarval Garden Cortalim",15.380940437316895,73.925796508789060,0
176,"Kesarval Garden Cortalim",15.381157875061035,73.925598144531250,0
177,"Verna Birla Bypass",15.376153945922852,73.925842285156250,0
178,"Verna Birla Bypass",15.376067161560059,73.925720214843750,0
179,"Verna Titan",15.371437072753906,73.926773071289060,0
180,"Verna Titan",15.371105194091797,73.926651000976560,0
181,"Verna Hotel Maharaja",15.364255905151367,73.926101684570310,0
182,"Verna Hotel Maharaja",15.364265441894531,73.925979614257810,0
183,"Verna Pirni",15.357833862304688,73.927299499511720,0
184,"Verna Pirni",15.356114387512207,73.928009033203120,0
185,"Verna Panchayat",15.354265213012695,73.930541992187500,0
186,"Verna Panchayat",15.353832244873047,73.930725097656250,0
187,"Verna Holy Church",15.349924087524414,73.931144714355470,0
188,"Verna Holy Church",15.349644660949707,73.931144714355470,0
189,"Verna Agnel Ashram",15.325547218322754,73.936714172363280,0
190,"Verna Agnel Ashram",15.325285911560059,73.936569213867190,0
191,"Verna Carmel College",15.311558723449707,73.944160461425780,0
192,"Carmel College",15.311599731445312,73.944297790527340,0
193,"Nuvem Church",15.307975769042969,73.946846008300780,0
194,"Nuvem Church",15.307914733886719,73.946777343750000,0
195,"Margao Kadamba Busstand",15.287400245666504,73.955810546875000,0
196,"Margao Kadamba Busstand",15.287694931030273,73.955009460449220,0
197,"Ribandar Patto",15.503903388977050,73.862358093261720,0
198,"Ribandar Patto",15.503721237182617,73.862457275390620,0
199,"Chodna Ferry",15.505742073059082,73.864257812500000,0
200,"Divar Ferry",15.500373840332031,73.877517700195310,0
201,"Divar Ferry",15.500309944152832,73.877578735351560,0
202,"Old Goa Baingini",15.500431060791016,73.901512145996100,0
203,"Old Goa Baingini",15.500399589538574,73.901748657226560,0
206,"Corlim Industrial Estate",15.496562957763672,73.931327819824220,0
207,"Corlim Industrial Estate",15.496518135070800,73.931358337402340,0
210,"Corlim Ciba",15.493430137634277,73.940666198730470,0
211,"Corlim Ciba",15.493377685546875,73.940681457519530,0
213,"Banastari",15.490007400512695,73.957405090332030,0
214,"Banastari",15.489975929260254,73.957504272460940,0
215,"Boma",15.475339889526367,73.963706970214840,0
216,"Boma",15.475280761718750,73.963691711425780,0
217,"Kundaim Industrial Estate",15.455743789672852,73.964408874511720,0
218,"Kundaim Industrial Estate",15.457423210144043,73.964477539062500,0
220,"Mangeshi Temple",15.448356628417969,73.971710205078120,0
222,"Mardol",15.442035675048828,73.975700378417970,0
223,"Farmagudi",15.413349151611328,73.988548278808600,0
224,"Farmagudi",15.413252830505371,73.988250732421880,0
225,"ponda Kadamba Busstand",15.405968666076660,73.997611999511720,0
226,"Ponda Market",15.400348663330078,74.004806518554690,0
227,"Xelpem Duler",15.607910156250000,73.812423706054690,0
228,"Xelpem Duler",15.607992172241211,73.812561035156250,0
244,"Panjim Ferry",15.499064445495605,73.838180541992190,0
245,"Panjim Ferry",15.498740196228027,73.838180541992190,0
246,"Ribandar Police Sation",15.501998901367188,73.872299194335940,0
251,"Old Goa",15.502029418945312,73.909790039062500,0
252,"Old Goa",15.501989364624023,73.909805297851560,0
263,"Nagargaon",15.557358741760254,74.159400939941400,0
264,"Nagargaon",15.557606697082520,74.159378051757810,0
265,"Posrare",15.570024490356445,73.806709289550780,0
266,"Posrare",15.570010185241700,73.806854248046880,0
275,"Marna",15.616213798522950,73.790740966796880,0
276,"Marna",15.616298675537110,73.790641784667970,0
277,"Siolim Church",15.614228248596191,73.769966125488280,0
278,"Siolim Church",15.614316940307617,73.769981384277340,0
279,"SFX HIGH SCHOOL",15.621823310852050,73.768432617187500,0
280,"SFX HIGH SCHOOL",15.621899604797363,73.768501281738280,0
281,"Siolim",15.626532554626465,73.766143798828120,0
282,"Siolim",15.626691818237305,73.766220092773440,0
283,"Chopdem",15.641147613525390,73.759010314941400,0
284,"Chopdem",15.640881538391113,73.758956909179690,0
295,"Mandrem",15.658791542053223,73.717033386230470,0
296,"Mandrem",15.658789634704590,73.717079162597660,0
299,"Siolim Fish Market",15.631817817687988,73.764274597167970,0
364,"DHULAPER",15.492917060852050,73.947265625000000,0
365,"Dhulapi",15.492877960205078,73.947280883789060,0
374,"Ashwem",15.641104698181152,73.722183227539060,0
375,"Ashwem",15.640994071960450,73.722160339355470,0
405,"Patyekade",15.434198379516602,73.985130310058600,0
406,"Patyekade",15.434162139892578,73.985115051269530,0
407,"Dhavli Ponda",15.394521713256836,74.002197265625000,0
408,"Dhavli Ponda",15.394689559936523,74.002082824707030,0
409,"Borim Brigde",15.354656219482422,74.002914428710940,0
410,"Borim Brigde",15.354653358459473,74.002868652343750,0
411,"Top Cola",15.366598129272461,74.004570007324220,0
412,"Top Cola",15.366733551025390,74.004524230957030,0
413,"Bori Sanquar",15.364641189575195,73.999687194824220,0
414,"Bori Sanquar",15.364612579345703,73.999786376953120,0
427,"Satarda Bridge",15.735390663146973,73.803260803222660,0
428,"Satarda Bridge",15.735691070556640,73.804000854492190,0
429,"Patradevi",15.793837547302246,73.863471984863280,0
441,"Dabolim Airport",15.386042594909668,73.838920593261720,0
442,"Dabolim Airport",15.385919570922852,73.838996887207030,0
448,"Sonal cross",15.544222831726074,74.152961730957030,0
449,"Sonal cross",15.544220924377441,74.153007507324220,0
450,"Postar",15.571433067321777,74.185943603515620,0
451,"Postar",15.571334838867188,74.186035156250000,0
452,"Maloli",15.576388359069824,74.196182250976560,0
453,"Maloli",15.576391220092773,74.196296691894530,0
454,"Nanorem",15.578695297241211,74.202934265136720,0
455,"Nanorem",15.578457832336426,74.202972412109380,0
456,"Redegathi",15.526781082153320,74.105293273925780,0
457,"Redegathi",15.526737213134766,74.105300903320310,0
468,"Codal",15.594434738159180,74.206809997558600,0
469,"Satorem",15.616919517517090,74.216339111328120,0
489,"Dharmapur",15.236863136291504,73.976211547851560,0
490,"Dharmapur",15.236838340759277,73.976165771484380,0
550,"Uguem",15.751780509948730,73.834663391113280,0
551,"Uguem",15.751777648925781,73.834709167480470,0
555,"Torxem",15.780611991882324,73.861297607421880,0
556,"Torxem",15.780572891235352,73.861312866210940,0
557,"Patradevi",15.793842315673828,73.863517761230470,0
559,"Poroscodem",15.739714622497559,73.812477111816400,0
560,"Poroscodem",15.739679336547852,73.812469482421880,0
566,"Morjim",15.620115280151367,73.737129211425780,0
567,"Morjim",15.620118141174316,73.737037658691400,0
639,"Kadamba Busstand Cancona",15.008385658264160,74.044013977050780,0
640,"Cancona Market",15.007432937622070,74.046821594238280,0
641,"Cancona Market",15.007246017456055,74.046752929687500,0
644,"Polem Goa Border",14.909437179565430,74.092918395996100,0
645,"Polem Goa Border",14.909280776977539,74.092834472656250,0
646,"lOLIEM",14.941643714904785,74.070457458496100,0
647,"Mashem",14.959374427795410,74.054855346679690,0
648,"Mashem",14.959296226501465,74.054840087890620,0
649,"Poigunim",14.973921775817871,74.092170715332030,0
650,"Poigunim",14.973734855651855,74.092185974121100,0
659,"Batpal",15.001820564270020,74.081855773925780,0
660,"Batpal",15.001720428466797,74.081794738769530,0
661,"Sristhal",15.006204605102539,74.062316894531250,0
662,"Sristhal",15.006033897399902,74.062324523925780,0
663,"Gullem",15.011044502258300,74.036376953125000,0
664,"Gullem",15.010927200317383,74.036323547363280,0
665,"Balli",15.156774520874023,74.014396667480470,0
666,"Balli",15.156688690185547,74.014358520507810,0
667,"Cuncolim Bus Stand",15.182192802429200,73.997657775878900,0
668,"Pazorkoni",15.201593399047852,73.995872497558600,0
669,"Pazorkoni",15.201689720153809,73.995758056640620,0
670,"Danewadi",15.214913368225098,73.984367370605470,0
671,"Danewadi",15.214835166931152,73.984230041503900,0
674,"Chinchinim\, Cuncolim Junction",15.218942642211914,73.978477478027340,0
697,"Barcem Market",15.078271865844727,74.032386779785160,0
698,"Barcem Market",15.078323364257812,74.032257080078120,0
727,"Paddi",15.092618942260742,74.031257629394530,0
728,"Paddi",15.092722892761230,74.031135559082030,0
729,"Pisornem",15.082037925720215,74.030097961425780,0
730,"Pisornem",15.081923484802246,74.030250549316400,0
731,"Colva Circle Bus Stand",15.283652305603027,73.956932067871100,0
732,"Colva Circle Bus Stand",15.283544540405273,73.956695556640620,0
733,"Margao Session Court Bus Stand",15.281025886535645,73.957214355468750,0
734,"Margao Session Court Bus Stand",15.281488418579102,73.957473754882810,0
737,"Balli Railway Station",15.151619911193848,74.018814086914060,0
738,"Balli Railway Station",15.151568412780762,74.018676757812500,0
745,"Pernem Railway Station",15.708120346069336,73.815040588378900,0
746,"Pernem Railway Station",15.708137512207031,73.815078735351560,0
751,"Fatorda Bus Stand",15.286126136779785,73.963531494140620,0
752,"Fatorda Bus Stand",15.286105155944824,73.963760375976560,0
753,"Arlem Bus Stand",15.298251152038574,73.971412658691400,0
754,"Arlem Bus Stand",15.298157691955566,73.971702575683600,0
755,"Raia Bus Stand",15.313735961914062,73.983726501464840,0
756,"Raia",15.313741683959961,73.983833312988280,0
757,"Tember",15.323983192443848,73.989028930664060,0
758,"Tember",15.323910713195800,73.989097595214840,0
759,"Borim Bridge",15.351637840270996,74.003517150878900,0
760,"Borim Bridge",15.351634979248047,74.003471374511720,0
774,"Gorvootti",15.301986694335938,73.949157714843750,0
775,"Gorvootti",15.301899909973145,73.949203491210940,0
776,"Cortalim Sancoale  Crossing Bus Stand",15.397699356079102,73.910758972167970,0
777,"Cortalim Sancoale  Crossing Bus Stand",15.397640228271484,73.910621643066400,0
801,"Margao City",15.273303985595703,73.957748413085940,0
804,"Margoa Holy Spirit Church & School",15.281523704528809,73.959854125976560,0
805,"Margao Hospicio Bus Stand",15.279479026794434,73.960075378417970,0
806,"Margao Kamat",15.272953033447266,73.958587646484380,0
807,"Railway Station Foot Overbridge Bus Stand",15.269627571105957,73.958946228027340,0
903,"Shelin",14.926164627075195,74.071395874023440,0
904,"Shelin",14.926060676574707,74.071311950683600,0
905,"Verna Pirni",15.357826232910156,73.927261352539060,0
906,"Metastrip",15.375622749328613,73.903999328613280,0
907,"Metastrip",15.375399589538574,73.904098510742190,0
908,"Upasnagar",15.372599601745605,73.892303466796880,0
909,"Upasnager",15.372400283813477,73.892303466796880,0
910,"Zuarinager",15.380832672119140,73.874099731445310,0
911,"Zuarinager",15.380797386169434,73.874038696289060,0
912,"MES College",15.387425422668457,73.864021301269530,0
913,"MES College",15.387269973754883,73.864006042480470,0
933,"Dhavli",15.387316703796387,73.999160766601560,0
934,"Dhavli",15.387141227722168,73.999076843261720,0
950,"Uzro Junction",15.319923400878906,73.983818054199220,0
951,"Uzro Junction",15.319839477539062,73.983901977539060,0
959,"Canacona IDC",15.008256912231445,74.070922851562500,0
960,"Canacona IDC",15.008106231689453,74.070884704589840,0
969,"Old Bus Stand Ponda",15.400443077087402,74.003845214843750,0
1044,"Dhapot",14.951025009155273,74.055198669433600,0
1045,"Dhapot",14.950869560241700,74.055053710937500,0
1046,"Bendordem",15.128079414367676,74.034042358398440,0
1047,"Bendordem",15.127965927124023,74.033767700195310,0
1048,"Godeval",15.105769157409668,74.031539916992190,0
1049,"Godeval",15.105728149414062,74.030899047851560,0
1067,"Camorlim\, Ambora",15.331683158874512,73.990806579589840,0
1068,"Camorlim\, Ambora",15.331656455993652,73.990913391113280,0
1069,"Saibaba Temple",15.359734535217285,74.000785827636720,0
1070,"Saibaba Temple",15.359753608703613,74.000823974609380,0
1139,"Cortalim Bus Stand",15.391026496887207,73.916473388671880,0
1140,"Cortalim Bus Stand",15.391057968139648,73.916542053222660,0
1260,"Don Khambe",15.665776252746582,73.838714599609380,0
1266,"Morjim Tem",15.618399620056152,73.733703613281250,0
1267,"Morjim Tem",15.618300437927246,73.733802795410160,0
1294,"Valshi",15.609252929687500,73.931732177734380,0
1295,"Valshi",15.609199523925781,73.931602478027340,0
1383,"St Cruz 2nd",15.471789360046387,73.850288391113280,0
1384,"St Cruz 2nd",15.471749305725098,73.850257873535160,0
1390,"Sancoale Zareer",15.396938323974610,73.870536804199220,0
1391,"Sancoale Zareer",15.396986961364746,73.870559692382810,0
1392,"Sancoale 5Star",15.399408340454102,73.884529113769530,0
1393,"Sancoale 5Star",15.399340629577637,73.884574890136720,0
1394,"Mardol",15.442061424255371,73.975730895996100,0
1395,"Mangeshi Temple",15.448378562927246,73.971755981445310,0
